[
  {
    "id": 4046255,
    "name": "Bay Minette",
    "state": "AL",
    "country": "US",
    "coord": {
      "lon": -87.773048,
      "lat": 30.882959
    }
  },
  {
    "id": 4046274,
    "name": "Edna",
    "state": "TX",
    "country": "US",
    "coord": {
      "lon": -96.646088,
      "lat": 28.97859
    }
  },
  {
    "id": 4046319,
    "name": "Bayou La Batre",
    "state": "AL",
    "country": "US",
    "coord": {
      "lon": -88.24852,
      "lat": 30.403521
    }
  },
  {
    "id": 4046332,
    "name": "Henderson",
    "state": "TX",
    "country": "US",
    "coord": {
      "lon": -94.799377,
      "lat": 32.153221
    }
  },
  {
    "id": 4046430,
    "name": "Natalia",
    "state": "TX",
    "country": "US",
    "coord": {
      "lon": -98.862534,
      "lat": 29.18968
    }
  },
  {
    "id": 4046440,
    "name": "Northrup",
    "state": "TX",
    "country": "US",
    "coord": {
      "lon": -96.970261,
      "lat": 30.1005
    }
  },
  {
    "id": 4046472,
    "name": "Primrose",
    "state": "TX",
    "country": "US",
    "coord": {
      "lon": -97.43335,
      "lat": 32.611519
    }
  },
  {
    "id": 4046499,
    "name": "Bear Creek",
    "state": "AL",
    "country": "US",
    "coord": {
      "lon": -87.700577,
      "lat": 34.274818
    }
  },
  {
    "id": 4046704,
    "name": "Fort Hunt",
    "state": "VA",
    "country": "US",
    "coord": {
      "lon": -77.058029,
      "lat": 38.732891
    }
  },
  {
    "id": 4046760,
    "name": "Jack",
    "state": "VA",
    "country": "US",
    "coord": {
      "lon": -77.509148,
      "lat": 37.196541
    }
  },
  {
    "id": 4046946,
    "name": "Yorktown",
    "state": "VA",
    "country": "US",
    "coord": {
      "lon": -76.509666,
      "lat": 37.238762
    }
  },
  {
    "id": 4047191,
    "name": "Belforest",
    "state": "AL",
    "country": "US",
    "coord": {
      "lon": -87.852493,
      "lat": 30.6038
    }
  },
  {
    "id": 4047198,
    "name": "Brighton",
    "state": "AL",
    "country": "US",
    "coord": {
      "lon": -86.947212,
      "lat": 33.43428
    }
  },
  {
    "id": 4047434,
    "name": "Russell County",
    "state": "AL",
    "country": "US",
    "coord": {
      "lon": -85.199944,
      "lat": 32.350151
    }
  },
  {
    "id": 4047656,
    "name": "Provo",
    "state": "AR",
    "country": "US",
    "coord": {
      "lon": -94.107697,
      "lat": 34.037609
    }
  },
  {
    "id": 4047734,
    "name": "Ocean View",
    "state": "DE",
    "country": "US",
    "coord": {
      "lon": -75.089073,
      "lat": 38.545109
    }
  },
  {
    "id": 4047827,
    "name": "Berry",
    "state": "AL",
    "country": "US",
    "coord": {
      "lon": -87.600014,
      "lat": 33.659828
    }
  },
  {
    "id": 4047906,
    "name": "Trinity",
    "state": "FL",
    "country": "US",
    "coord": {
      "lon": -82.68177,
      "lat": 28.180849
    }
  },
  {
    "id": 4047914,
    "name": "Villas",
    "state": "FL",
    "country": "US",
    "coord": {
      "lon": -81.868698,
      "lat": 26.55035
    }
  },
  {
    "id": 4048023,
    "name": "Bessemer",
    "state": "AL",
    "country": "US",
    "coord": {
      "lon": -86.954437,
      "lat": 33.401779
    }
  },
  {
    "id": 4048332,
    "name": "Aurora",
    "state": "IN",
    "country": "US",
    "coord": {
      "lon": -84.901337,
      "lat": 39.056999
    }
  },
  {
    "id": 4048388,
    "name": "New Pekin",
    "state": "IN",
    "country": "US",
    "coord": {
      "lon": -86.016922,
      "lat": 38.505058
    }
  },
  {
    "id": 4048488,
    "name": "Stockton",
    "state": "KS",
    "country": "US",
    "coord": {
      "lon": -99.265099,
      "lat": 39.438068
    }
  },
  {
    "id": 4048522,
    "name": "Boone County",
    "state": "KY",
    "country": "US",
    "coord": {
      "lon": -84.633278,
      "lat": 38.86673
    }
  },
  {
    "id": 4048572,
    "name": "Rowan County",
    "state": "KY",
    "country": "US",
    "coord": {
      "lon": -83.433243,
      "lat": 38.183411
    }
  },
  {
    "id": 4048662,
    "name": "Paducah",
    "state": "KY",
    "country": "US",
    "coord": {
      "lon": -88.600052,
      "lat": 37.083389
    }
  },
  {
    "id": 4048706,
    "name": "Stricklett",
    "state": "KY",
    "country": "US",
    "coord": {
      "lon": -83.387413,
      "lat": 38.48452
    }
  },
  {
    "id": 4048850,
    "name": "Monticello",
    "state": "LA",
    "country": "US",
    "coord": {
      "lon": -91.393997,
      "lat": 32.596531
    }
  },
  {
    "id": 4048888,
    "name": "Red Chute",
    "state": "LA",
    "country": "US",
    "coord": {
      "lon": -93.613228,
      "lat": 32.555981
    }
  },
  {
    "id": 4049032,
    "name": "Jessup",
    "state": "MD",
    "country": "US",
    "coord": {
      "lon": -76.775253,
      "lat": 39.149269
    }
  }
]
